City_ID,City,Country,Max Temp,Current Description,Lat,Lng,Hotel Name
1,Bengkulu,ID,77.25,scattered clouds,-3.8004,102.2655,Grage Hotel Bengkulu
2,Cap Malheureux,MU,79.29,overcast clouds,-19.9842,57.6142,Pereybere Hotel & Spa
3,Mount Gambier,AU,84.11,light rain,-37.8333,140.7667,The Commodore
5,Colon,PA,79.25,clear sky,9.3592,-79.9014,Sand Diamond Hotel
6,Viedma,AR,92.07,clear sky,-40.8135,-62.9967,Hotel Cristal
9,Quatre Cocos,MU,78.91,overcast clouds,-20.2078,57.7625,Sunrise Attitude Hotel
10,Ninh Binh,VN,63.7,overcast clouds,20.2539,105.975,Kinh Do Hotel
11,Vaini,TO,86.16,broken clouds,-21.2,-175.2,Keleti Beach Resort
12,Antalaha,MG,75.65,overcast clouds,-14.9003,50.2788,Hotel Vitasoa
14,Busselton,AU,69.04,few clouds,-33.65,115.3333,Observatory Guest House
15,Hobyo,SO,76.26,scattered clouds,5.3505,48.5268,Halane Hotel and Restaurent
16,Hobart,AU,70.02,broken clouds,-42.8794,147.3294,Mantra on Collins Hobart
17,Broken Hill,AU,92.91,scattered clouds,-31.95,141.4333,Royal Exchange Hotel
18,Saldanha,ZA,64.45,overcast clouds,-33.0117,17.9442,Blue Bay Lodge
20,Belmonte,BR,77.5,clear sky,-15.8631,-38.8828,Pousada Monte Carmelo O Pão
21,Alofi,NU,84.09,broken clouds,-19.0595,-169.9187,Taloa Heights
23,Hithadhoo,MV,82.6,overcast clouds,-0.6,73.0833,Scoop Guest House
27,Nyimba,ZM,68.13,overcast clouds,-14.5566,30.8149,Dali Dali Lodge
28,Kavieng,PG,84.52,overcast clouds,-2.5744,150.7967,Nusa Island Retreat
31,Yenangyaung,MM,64.56,few clouds,20.4667,94.8833,Hotel Country
32,Port Moresby,PG,89.02,few clouds,-9.4431,147.1797,Lamana Hotel (Port Moresby)
34,Maceio,BR,80.04,scattered clouds,-9.6658,-35.7353,Poutur Pousada
35,Malumfashi,NG,66.04,clear sky,11.7853,7.6218,INFINITY CYBER CAFE MALUMFASHI
40,Gat,IL,61.39,broken clouds,31.61,34.7642,OlusHome
41,San Cayetano,CO,77.88,scattered clouds,7.8771,-72.6243,Finca El Limonar
44,Rikitea,PF,77.14,light rain,-23.1203,-134.9692,People ThankYou
45,Kapaa,US,78.78,broken clouds,22.0752,-159.319,Sheraton Kauai Coconut Beach Resort
47,Chuy,UY,69.19,light rain,-33.6971,-53.4616,Nuevo Hotel Plaza
50,Georgetown,MY,78.73,few clouds,5.4112,100.3354,Cititel Penang
56,Atuona,PF,77.76,clear sky,-9.8,-139.0333,Villa Enata
57,Puerto Ayora,EC,74.41,broken clouds,-0.7393,-90.3518,Finch Bay Galapagos Hotel
58,Acapulco,MX,82.22,clear sky,16.8634,-99.8901,HS Hotsson Smart Acapulco
59,Kaduqli,SD,80.38,clear sky,11.0167,29.7167,فندق الله جابو
63,Chingola,ZM,62.01,light rain,-12.529,27.8838,Protea Hotel by Marriott Chingola
64,Victoria,HK,62.26,overcast clouds,22.2855,114.1577,Mini Hotel Central
68,Saint George,US,60.35,clear sky,37.1041,-113.5841,Best Western Plus Abbey Inn
70,Bhandaria,BD,62.91,overcast clouds,22.4861,90.0609,Syfur Rahman
71,Geraldton,AU,75.61,overcast clouds,-28.7667,114.6,Broadwater Mariner Resort
74,Bredasdorp,ZA,67.32,overcast clouds,-34.5322,20.0403,Bredasdorp Country Manor
75,Lamu,KE,77.05,overcast clouds,-2.2717,40.902,Lamu House
76,Codrington,AU,86.04,light rain,-38.2667,141.9667,Codrington Gardens Bed And Breakfast
77,Traralgon,AU,79.9,few clouds,-38.1833,146.5333,Comfort Inn Traralgon
78,Port Alfred,ZA,70.48,overcast clouds,-33.5906,26.891,The Halyards Hotel
83,Coquimbo,CL,63.7,few clouds,-29.9533,-71.3436,Hostel Del Puerto
96,Hilo,US,80.33,broken clouds,19.7297,-155.09,Hilo Hawaiian Hotel
99,Saint-Pierre,RE,77.29,broken clouds,-21.3393,55.4781,Lindsey Hôtel
101,Cape Town,ZA,72.01,clear sky,-33.9258,18.4232,Southern Sun Waterfront Cape Town
103,Mahebourg,MU,79.09,scattered clouds,-20.4081,57.7,Shandrani Beachcomber Resort & Spa
104,Hermanus,ZA,69.91,overcast clouds,-34.4187,19.2345,Misty Waves Boutique Hotel
107,San Fernando,PH,79.14,broken clouds,15.0286,120.6898,Maharlika Hostel
108,Caravelas,BR,74.25,clear sky,-17.7125,-39.2481,Pousada dos Navegantes
113,Mar Del Plata,AR,74.08,clear sky,-38.0023,-57.5575,Gran Hotel Mar del Plata
114,Basco,PH,70.84,broken clouds,20.4487,121.9702,Nathaniel's Lodge
117,Cayenne,GF,75.24,clear sky,4.9333,-52.3333,Hôtel Le Dronmi
118,Mackay,AU,86.68,scattered clouds,-21.15,149.2,International Lodge Motel
120,Half Moon Bay,US,66.15,haze,37.4636,-122.4286,"The Ritz-Carlton, Half Moon Bay"
122,Kaeo,NZ,77.32,clear sky,-35.1,173.7833,Bushido Lodge
126,Sibolga,ID,78.04,broken clouds,1.7427,98.7792,Hotel Syariah CN Darussalam
127,Faanui,PF,77.41,moderate rain,-16.4833,-151.75,Bora-Bora Pearl Beach Resort & Spa
128,Rocha,UY,63.3,clear sky,-34.4833,-54.3333,Hotel Arrarte
132,New Norfolk,AU,69.66,overcast clouds,-42.7826,147.0587,The Shingles Riverside Cottages
133,Niono,ML,72.63,few clouds,14.2526,-5.993,Hôtel Campement
134,Esperance,AU,75.04,clear sky,-33.8667,121.9,Hospitality Esperance
135,Salalah,OM,69.89,few clouds,17.0151,54.0924,"HAMDAN PLAZA HOTEL SALALAH, an HTG Hotel"
136,Tagusao,PH,80.4,overcast clouds,9.1924,117.8141,Toledo
138,Biak,ID,81.48,overcast clouds,-0.9131,122.8766,Penginapan Kim
139,Cabo San Lucas,MX,79.9,scattered clouds,22.8909,-109.9124,Hotel Tesoro Los Cabos
142,Antonio Escobedo,MX,75.04,overcast clouds,20.8,-104.0167,Privada Pérez S
146,Beitbridge,ZW,73.49,overcast clouds,-22.2167,30.0,Beitbridge Express Hotel
148,Arraial Do Cabo,BR,76.15,overcast clouds,-22.9661,-42.0278,Pousada Porto Praia
149,Goma,CD,63.66,overcast clouds,-1.6792,29.2228,Hotel la Versailles Goma
151,Te Anau,NZ,63.77,clear sky,-45.4167,167.7167,Kingsgate Hotel Te Anau
154,Atar,MR,69.85,overcast clouds,20.5169,-13.0499,Oumou Elghoura
155,Kattivakkam,IN,80.08,scattered clouds,13.2167,80.3167,Euronova Freezer
156,Hambantota,LK,73.74,few clouds,6.1241,81.1185,Bungalow 63
157,Ponta Do Sol,PT,63.72,scattered clouds,32.6667,-17.1,Hotel do Campo
168,Mmathubudukwane,BW,68.58,light rain,-24.6,26.4333,Gill Sleepover Guesthouse
169,Santa Cruz,BO,80.06,clear sky,-17.8,-63.1667,Aviador Hotel Boutique
171,Mildura,AU,91.36,broken clouds,-34.2,142.15,Mercure Hotel Mildura
172,Port Blair,IN,79.97,overcast clouds,11.6667,92.75,"Welcomhotel By ITC Hotels, Bay Island, Port Blair"
174,Saint-Georges,GD,76.68,few clouds,12.0564,-61.7485,Radisson Grenada Beach Resort
175,Reconquista,AR,84.34,clear sky,-29.15,-59.65,Grand Hotel
176,Souillac,MU,79.18,light rain,-20.5167,57.5167,Shanti Maurice Resort & Spa
177,Katherine,AU,75.52,moderate rain,-14.4667,132.2667,Pine Tree Motel
178,Santa Marta,CO,80.89,clear sky,11.2408,-74.199,Casa de Isabella
180,Nampula,MZ,70.38,overcast clouds,-15.1165,39.2666,BUTIK Hotel
183,Carnarvon,AU,78.87,clear sky,-24.8667,113.6333,Hospitality Carnarvon
184,Avarua,CK,84.25,broken clouds,-21.2078,-159.775,Paradise Inn
192,Kavaratti,IN,78.35,overcast clouds,10.5669,72.642,Hotels in Lakshadweep Islands
195,Boueni,YT,80.58,overcast clouds,-12.9025,45.0761,The feet in water
197,Clarence Town,AU,82.62,scattered clouds,-32.5833,151.7833,River Downs Cottage
199,Santa Isabel Do Rio Negro,BR,77.94,overcast clouds,-0.4139,-65.0192,Hotel GSA
200,Port Elizabeth,ZA,70.11,overcast clouds,-33.918,25.5701,39 On Nile Guest House
201,Lorengau,PG,85.17,overcast clouds,-2.0226,147.2712,Lorengau Harbourside Hotel
203,Bambous Virieux,MU,79.05,scattered clouds,-20.3428,57.7575,Casa Tia Villa
204,Pangai,TO,84.31,broken clouds,-19.8,-174.35,Ha'apai Beach Resort
206,Lima,PE,72.14,clear sky,-12.0432,-77.0282,Gran Hotel Bolivar Lima
210,Saint-Philippe,RE,77.22,light rain,-21.3585,55.7679,"Chambres d'hôte ""La Trinité"""
211,Banda Aceh,ID,78.8,scattered clouds,5.5577,95.3222,Sulthan Hotel International
213,Le Port,RE,77.61,light rain,-20.9373,55.2919,KORBEY D'OR OUEST
216,Salvador,SV,77.04,broken clouds,13.8333,-88.9167,Chico's Ranch
218,Road Town,VG,73.49,clear sky,18.4167,-64.6167,"ZINGARA 76ft Catamaran, full crew-all included"
219,Ambilobe,MG,74.73,overcast clouds,-13.2,49.05,Hôtel & Restaurant DIANA Ambilobe
222,Buin,CL,76.73,clear sky,-33.7333,-70.75,Paihuen
223,Honiara,SB,84.63,overcast clouds,-9.4333,159.95,Heritage Park Hotel
224,East London,ZA,71.02,overcast clouds,-33.0153,27.9116,Tu Casa
229,Sao Filipe,CV,72.36,overcast clouds,14.8961,-24.4956,Hotel Xaguate
230,Nha Trang,VN,75.2,broken clouds,12.25,109.1833,Sheraton Nha Trang Hotel & Spa
232,Plaza De Caisan,PA,71.69,clear sky,8.7333,-82.8167,Rolando Peralta
235,Nuevo Progreso,MX,71.6,broken clouds,23.1667,-97.95,Balneario Rio el Paraiso
238,Ancud,CL,63.43,clear sky,-41.8697,-73.8203,Hotel Arena Gruesa
242,Bombay,IN,67.98,haze,19.0144,72.8479,Hotel Avon Ruby-Dadar
243,Puerto Carreno,CO,85.91,scattered clouds,6.189,-67.4859,Casa Hotel Victoria
244,Port Augusta,AU,68.14,clear sky,-32.5,137.7667,Majestic Oasis Apartments
245,Sinazongwe,ZM,73.24,overcast clouds,-17.2614,27.4618,Lakeview Lodge
246,Marsh Harbour,BS,70.83,few clouds,26.5412,-77.0636,Abaco Beach Resort
251,Matamoros,MX,64.51,scattered clouds,25.5333,-103.25,Quinta Belem
252,Huambo,AO,60.37,overcast clouds,-12.7761,15.7392,SiSHotel
253,Guaymas,MX,76.46,scattered clouds,27.9333,-110.9,Hotel Armida
254,Soyo,AO,76.59,overcast clouds,-6.1349,12.3689,Hotel Mpampa
256,Puerto Madryn,AR,74.53,clear sky,-42.7692,-65.0385,Hotel Tolosa
257,Grand Gaube,MU,79.2,overcast clouds,-20.0064,57.6608,Veranda Paul et Virginie Hotel & Spa
258,Mecca,SA,73.83,scattered clouds,21.4267,39.8261,"Makkah Clock Royal Tower, A Fairmont Hotel"
260,San Patricio,US,63.01,overcast clouds,28.017,-97.5169,"Motel 6 Sinton, TX"
265,Tramandai,BR,73.22,clear sky,-29.9847,-50.1336,Hotel Da Praia
268,Lae,PG,90.39,scattered clouds,-6.7221,146.9847,Phils Hotel
269,Puerto Escondido,MX,81.43,few clouds,15.85,-97.0667,Aldea del Bazar Hotel and Spa
270,Catamarca,AR,85.64,clear sky,-28.4696,-65.7852,Amerian Catamarca Park Hotel
271,Butaritari,KI,82.6,few clouds,3.0707,172.7902,Isles Sunset Lodge
272,Yanam,IN,70.12,overcast clouds,16.7333,82.2167,The Regency Hotel
273,Skeldon,GY,74.59,overcast clouds,5.8833,-57.1333,Classic International Hotel & Suites
275,Nelson Bay,AU,82.76,few clouds,-32.7167,152.15,Mantra Nelson Bay
277,Castro,BR,62.22,overcast clouds,-24.7911,-50.0119,CHACARA BAILLY
280,West Bay,KY,78.87,few clouds,19.3667,-81.4167,Calypso Cove
281,Port Lincoln,AU,70.75,clear sky,-34.7333,135.8667,Port Lincoln Hotel
283,Kolokani,ML,71.92,broken clouds,13.5728,-8.0339,Lycee Famolo Coulibalibali De Kolokani
286,Ribeira Grande,PT,61.39,clear sky,38.5167,-28.7,Quinta da Meia Eira
287,Puerto El Triunfo,SV,86.86,overcast clouds,13.2833,-88.55,Hotel Jardin
289,Atambua,ID,79.97,overcast clouds,-9.1061,124.8925,Pastori 1 Jemaat Polycarpus
290,Jequitinhonha,BR,71.29,clear sky,-16.4339,-41.0033,Hotel Bela Vista
292,Te Horo,NZ,66.09,clear sky,-40.8084,175.1233,Cottage 103
295,Itarema,BR,77.81,few clouds,-2.9248,-39.9167,"Sea Lounge! Bar, Club & Restaurant"
296,Pizarro,CO,77.11,overcast clouds,4.9533,-77.366,Hotel Limonar
297,Takaka,NZ,65.75,broken clouds,-40.85,172.8,Golden Bay Motels
300,Touros,BR,81.5,scattered clouds,-5.1989,-35.4608,INN NEW HORIZON
302,Pisco,PE,71.65,scattered clouds,-13.7,-76.2167,Hotel San Isidro Oficial
303,Champerico,GT,84.74,clear sky,14.3,-91.9167,"Hotel y restaurante ""El Diamante"""
304,Boyolangu,ID,78.69,overcast clouds,-8.1181,111.8935,Yos ega cv
305,Kupang,ID,82.98,thunderstorm,-10.1667,123.5833,Hotel On The Rock by Prasanthi
306,Sao Joao Da Barra,BR,75.33,few clouds,-21.6403,-41.0511,Pousada Porto De Canoas
311,Namibe,AO,67.86,overcast clouds,-15.1961,12.1522,Hotel Chik Chik Namibe
314,Guiratinga,BR,68.95,scattered clouds,-16.3494,-53.7583,Hotel Angra do Cerrado - Guiratinga MT
316,Lagoa,PT,60.87,broken clouds,39.05,-27.9833,Casa Das Faias
317,Uige,AO,66.99,overcast clouds,-7.6087,15.0613,Hotel Catraio
319,Chabahar,IR,66.27,clear sky,25.2919,60.643,هتل گدروشیا
322,Otaki,NZ,67.75,clear sky,-40.7583,175.15,Sundari Retreat
323,Boffa,GN,78.51,clear sky,10.1667,-14.0333,Hôtel Niara Belly
326,Laguna,US,63.43,clear sky,38.421,-121.4238,"Holiday Inn Express & Suites Elk Grove Central - Hwy 99, an IHG Hotel"
328,Msowero,TZ,72.27,overcast clouds,-6.5333,37.2,Sagumo House
331,Chimbote,PE,70.5,overcast clouds,-9.0853,-78.5783,Hotel Viera Chimbote
336,Ewa Beach,US,80.55,overcast clouds,21.3156,-158.0072,Uncle Junior Robert
337,Fayaoue,NC,80.29,scattered clouds,-20.65,166.5333,Chez Dydyce Guesthouse
340,Cidreira,BR,73.72,clear sky,-30.1811,-50.2056,Hotel Castelo
344,Guerrero Negro,MX,70.93,broken clouds,27.9769,-114.0611,"Casa Laguna, Bed & Breakfast"
346,Padang,ID,75.25,overcast clouds,-0.9492,100.3543,Mercure Padang
348,San Lorenzo,PY,88.74,clear sky,-25.3333,-57.5333,Hotel del Sur
351,Dingle,PH,78.55,broken clouds,10.9995,122.6711,SEGAYA PROPERTY
352,Payo,ID,74.93,scattered clouds,-3.7508,103.6372,Mess keban agung
353,Formosa,AR,87.78,smoke,-26.1775,-58.1781,Hotel Portal del Sol
355,Owando,CG,73.72,overcast clouds,-0.4819,15.8999,Exaunel Hotel Owando
356,Hualmay,PE,71.19,overcast clouds,-11.0964,-77.6139,Hotel Villa Kitzia Huacho
361,Alice,US,63.97,overcast clouds,27.7523,-98.0697,"Holiday Inn Express & Suites Alice, an IHG Hotel"
362,Lazaro Cardenas,MX,77.68,few clouds,17.9583,-102.2,quinta antigua
364,Kahului,US,82.42,scattered clouds,20.8947,-156.47,Maui Seaside Hotel
367,Burirao,PH,78.98,broken clouds,9.2,118.1,Calapini Pension/Lodging House
370,Ilo,PE,71.04,broken clouds,-17.6394,-71.3375,Torreblanca Hotel
372,Tual,ID,82.71,overcast clouds,-5.6667,132.75,Grand Vilia Hotel
375,Lompoc,US,69.48,clear sky,34.6391,-120.4579,"Holiday Inn Express Lompoc, an IHG Hotel"
376,Beira,MZ,78.89,overcast clouds,-19.8436,34.8389,Beira Terrace Hotel
379,Matao,BR,69.73,overcast clouds,-21.6033,-48.3658,Hotel Caiçara
380,Sharjah,AE,71.26,clear sky,25.3573,55.4033,Swiss Belhotel Sharjah
383,Ndioum,SN,79.2,overcast clouds,16.5129,-14.6471,l'hôtel samassa
384,Kalmunai,LK,75.47,broken clouds,7.4167,81.8167,VS Villa
385,Boa Vista,BR,84.18,clear sky,2.8197,-60.6733,Aipana Plaza Hotel
388,Samarai,PG,85.55,broken clouds,-10.6167,150.6667,Nuli Sapi
398,Vallenar,CL,73.27,few clouds,-28.5708,-70.7581,Humacao Bed & Breakfast
399,Miri,MY,78.94,scattered clouds,4.4148,114.0089,"Mega Hotel, Miri"
400,Emerald,AU,85.33,scattered clouds,-23.5333,148.1667,The Irish Village
404,Kiunga,PG,82.92,overcast clouds,-6.1219,141.2906,Airport Lodge Kiunga
405,Batemans Bay,AU,73.98,broken clouds,-35.7167,150.1833,Batemans Bay Marina Resort
408,Mendoza,AR,98.13,scattered clouds,-32.8908,-68.8272,Hotel Mendoza
411,Yulara,AU,93.04,clear sky,-25.2406,130.9889,Desert Gardens Hotel - Ayers Rock Resort
412,Buraydah,SA,63.05,overcast clouds,26.326,43.975,فندق راحة السلام
413,Burnie,AU,69.94,overcast clouds,-41.0667,145.9167,Beachfront Voyager Motor Inn
414,Bosaso,SO,70.43,clear sky,11.2842,49.1816,Red Sea Hotel
415,Bontang,ID,78.46,overcast clouds,0.1333,117.5,KOPKAR Hotel Bintang Sintuk
416,Dwarka,IN,64.18,clear sky,22.2394,68.9678,Hotel Narayan Avezika Comfort
424,Ures,MX,76.12,overcast clouds,29.4333,-110.4,Hotel HACIENDA San Francisco
427,Sri Aman,MY,75.25,scattered clouds,1.2376,111.4621,Seri Simanggang Hotel
429,Dakar,SN,74.28,clear sky,14.6937,-17.4441,Redface Studios Meublés
431,Upington,ZA,75.58,few clouds,-28.4478,21.2561,River Place Manor
432,Davila,PH,69.78,few clouds,18.4726,120.5763,Blue Ridge Beach Resort
434,Luganville,VU,87.26,clear sky,-15.5333,167.1667,The Espiritu Hotel
435,Port Macquarie,AU,78.76,clear sky,-31.4333,152.9167,Rydges Port Macquarie
437,Bandar-E Lengeh,IR,62.71,clear sky,26.5579,54.8807,کافی نت پارس
438,Lindi,TZ,75.56,overcast clouds,-10.0,39.7167,Lindi paradise house
441,Port Keats,AU,81.21,overcast clouds,-14.25,129.55,TDC Village (Hundred Man Camp)
442,Kedougou,SN,78.64,few clouds,12.5579,-12.1743,Relais de Kédougou
443,Ko Samui,TH,80.74,broken clouds,9.5357,99.9357,The Passage
445,Kloulklubed,PW,81.1,broken clouds,7.0419,134.2556,Storyboard Beach Resort
446,Bowen,AU,84.42,few clouds,-20.0167,148.2333,Castle Motor Lodge Motel
447,Olinda,BR,82.13,scattered clouds,-8.0089,-34.8553,Hotel Albergue de Olinda
449,Eirunepe,BR,71.83,overcast clouds,-6.6603,-69.8736,Atrás de você
450,Ampanihy,MG,76.73,overcast clouds,-24.7,44.75,Angora Hotel
454,Manga,BF,75.76,clear sky,11.6636,-1.0731,Auberge du 11 décembre de la cité CNSS à Manga
457,Libreville,GA,78.3,moderate rain,0.3925,9.4537,Le Méridien Re-Ndama
458,Les Cayes,HT,72.93,few clouds,18.2,-73.75,Villa Orphee
459,Zinder,NE,65.68,clear sky,13.8072,8.9881,Hotel de Ville
461,Bouna,CI,76.41,clear sky,9.2667,-3.0,Hôtel lababa
463,Yeppoon,AU,82.18,broken clouds,-23.1333,150.7333,Villa Mar Colina
466,Mount Isa,AU,91.17,overcast clouds,-20.7333,139.5,ibis Styles Mt Isa Verona
468,Gizo,SB,85.24,light rain,-8.103,156.8419,Imagination Island
477,Marawi,PH,69.66,overcast clouds,7.9986,124.2928,Derogongan Residence
480,Lhokseumawe,ID,77.9,overcast clouds,5.1801,97.1507,OYO 3278 Penginapan Alfajri
485,Bubaque,GW,78.93,scattered clouds,11.2833,-15.8333,"Casa Dora, Bubaque"
486,Cordoba,AR,85.05,clear sky,-31.4135,-64.1811,Hotel Sussex
487,Muisne,EC,76.82,overcast clouds,0.6,-80.0333,Quinta Samay
488,Wajir,KE,76.48,broken clouds,1.7471,40.0573,Al-bustan Hotel And Restaurant.
490,Danielskuil,ZA,69.17,scattered clouds,-28.1887,23.5395,Botha'Sig Gastehuis
491,Meulaboh,ID,75.97,overcast clouds,4.1363,96.1285,Kost Pria
492,Dunedin,NZ,60.37,scattered clouds,-45.8742,170.5036,Scenic Hotel Southern Cross
494,Santa Fe,AR,93.74,few clouds,-31.6333,-60.7,Conquistador Hotel
496,Kalas,IN,60.75,scattered clouds,18.1667,74.8,Hotel Durvankur
499,Nabire,ID,84.49,overcast clouds,-3.3667,135.4833,Hotel Nusantara Nabire
503,El Sauzal,MX,60.42,overcast clouds,31.9,-116.6833,La Rosas Hotel & Spa
504,Kulhudhuffushi,MV,81.3,scattered clouds,6.6221,73.07,Haajy Guest House 1
506,Omboue,GA,76.42,broken clouds,-1.5746,9.2618,Hotel Olako
507,Armidale,AU,71.82,clear sky,-30.5167,151.65,Abbotsleigh Motor Inn
508,Kathu,TH,76.82,overcast clouds,7.9178,98.3332,Novotel Phuket Resort
509,Camabatela,AO,63.86,overcast clouds,-8.1881,15.375,Pensão E Restaurantes
510,Flinders,AU,74.48,light rain,-34.5833,150.8552,Shellharbour Resort & Conference Centre
512,Sucua,EC,69.08,overcast clouds,-2.4667,-78.1667,Hotel Orellana
519,Sinnamary,GF,76.86,overcast clouds,5.3833,-52.95,ALETHEIA Appartement Sinnamary
523,Cockburn Town,TC,76.21,clear sky,21.4612,-71.1419,Osprey Beach Hotel
524,Osmena,PH,79.7,overcast clouds,10.5208,119.9258,Arjemarkyza Lodge
525,Sangmelima,CM,69.55,overcast clouds,2.9333,11.9833,gamestar hotel
526,Cairns,AU,92.95,scattered clouds,-16.9167,145.7667,Mantra Trilogy Cairns
527,Pouembout,NC,84.4,broken clouds,-21.1333,164.9,Camping de Tipenga
528,Chicama,PE,70.34,overcast clouds,-7.8447,-79.1469,Balihai Bungalows
530,Tucuman,AR,78.8,haze,-26.8241,-65.2226,Dallas Hotel Tucuman
534,Bilma,NE,62.62,clear sky,18.6853,12.9164,Expeditions Ténére voyages
537,Vangaindrano,MG,75.13,overcast clouds,-23.35,47.6,Hotel Fanilo
539,Ternate,ID,82.51,overcast clouds,0.8,127.4,Sahid Bela Ternate Hotel
546,The Valley,AI,76.86,clear sky,18.217,-63.0578,CeBlue Villas & Beach Resort
547,Keti Bandar,PK,62.73,clear sky,24.1447,67.4497,Haji laloo memon house
548,Sitrah,BH,64.36,clear sky,26.1547,50.6206,Al Bander Resort
549,Monywa,MM,63.16,overcast clouds,22.1167,95.1333,Monywa Hotel
551,Taltal,CL,68.52,broken clouds,-25.4,-70.4833,Residencial Karime
552,Fare,PF,77.25,moderate rain,-16.7,-151.0167,Maitai Lapita Village Huahine
553,Warri,NG,80.35,light rain,5.5167,5.75,BON Hotel Delta
554,Mongu,ZM,66.56,moderate rain,-15.2484,23.1274,Country Lodge Mongu
555,Pacific Grove,US,68.11,clear sky,36.6177,-121.9166,Lovers Point Inn
556,Makakilo City,US,79.12,overcast clouds,21.3469,-158.0858,Marriott's Ko Olina Beach Club
557,Fort Wellington,GY,76.42,overcast clouds,6.4,-57.6,TE'AMO Entertainment Park
561,Kipini,KE,76.03,scattered clouds,-2.5257,40.5262,Delta Sea Mall
562,Bundaberg,AU,82.69,scattered clouds,-24.85,152.35,Takalvan Motel
563,Nakhon Si Thammarat,TH,79.05,overcast clouds,8.25,100.0,ร้านไอซ์โมสีshop
565,Christchurch,NZ,65.03,overcast clouds,-43.5333,172.6333,The George
568,Coihaique,CL,66.15,few clouds,-45.5752,-72.0662,Diego De Almagro Coyhaique
569,Dawei,MM,74.3,scattered clouds,14.0833,98.2,Hotel Dawei
573,Kudahuvadhoo,MV,81.9,overcast clouds,2.6708,72.8944,Niyama Private Islands Maldives
574,Ballina,AU,80.78,scattered clouds,-28.8667,153.5667,Ramada Hotel & Suites by Wyndham Ballina Byron
576,Saint-Joseph,RE,76.21,light rain,-21.3667,55.6167,"""Plantation Bed and Breakfast"
577,Berbera,SO,73.74,scattered clouds,10.4396,45.0143,IBCO REAL ESTATE PROPERTY
578,Matara,LK,75.6,scattered clouds,5.9485,80.5353,Amaloh Boutique Resort
579,Ankazoabo,MG,70.57,overcast clouds,-22.2833,44.5167,ENCEIN BUREAU CISCO
586,Luanda,AO,75.2,scattered clouds,-8.8368,13.2343,Hotel Fórum
587,Tecoanapa,MX,79.39,clear sky,16.5167,-98.75,Hotel Manglares
592,Waipawa,NZ,63.45,overcast clouds,-41.4122,175.5153,Tora Coastal Walk
596,Nacala,MZ,78.28,overcast clouds,-14.5428,40.6728,Nacala Plaza Business Design Hotel
600,George,ZA,62.15,overcast clouds,-33.963,22.4617,Protea Hotel by Marriott George King George
601,Majene,ID,80.13,overcast clouds,-3.5403,118.9707,Kost Putri RABBANI
602,Bagotville,AU,80.64,clear sky,-28.9833,153.4167,Broadwater Sunrise Caravan Park
605,Santa Maria,BR,76.3,clear sky,-29.6842,-53.8069,Hotel Morotin
607,Narasannapeta,IN,67.89,overcast clouds,18.4167,84.05,G.lingaraju home
610,Mossendjo,CG,69.67,overcast clouds,-2.9506,12.7261,HOTEL D'ASSISE
613,Antofagasta,CL,67.57,overcast clouds,-23.65,-70.4,"Holiday Inn Express Antofagasta, an IHG Hotel"
614,Amarante Do Maranhao,BR,70.2,overcast clouds,-5.5667,-46.7422,Hotéis Caçulinha
615,Magaria,NE,68.13,clear sky,12.9983,8.9099,Chez Honorable Chapiou
623,Innisfail,AU,92.88,few clouds,-17.5333,146.0333,Moondarra Motel
624,High Rock,BS,64.42,scattered clouds,26.6208,-78.2833,Hideaway Bahamas Beach Club
627,Paoua,CF,71.47,overcast clouds,7.2427,16.4406,Quartier Paoua Elien
629,Chimoio,MZ,73.26,broken clouds,-19.1164,33.4833,Predio Livraria Ahmed
635,Kang,BW,69.82,broken clouds,-23.6752,22.7876,Kang Ultra Stop
639,Sete Lagoas,BR,76.28,broken clouds,-19.4658,-44.2467,Sete Lagoas Residence Hotel Centro de Convenções
641,Arlit,NE,64.06,clear sky,18.7369,7.3853,Case de Passage De la Prefecture
647,Manoel Urbano,BR,73.08,broken clouds,-8.8389,-69.2597,Baixada Beira Rio
648,Kyaikkami,MM,76.08,broken clouds,16.08,97.5675,St. joseph catholic church
654,Sakete,BJ,83.34,light rain,6.7362,2.6587,IBUKUN OLUWA
657,Ondjiva,AO,74.62,overcast clouds,-17.0667,15.7333,COMBUESA
658,Belem De Sao Francisco,BR,78.71,scattered clouds,-8.7539,-38.9658,Village Hotel
659,Bathsheba,BB,79.41,broken clouds,13.2167,-59.5167,Atlantis Hotel
660,Byron Bay,AU,80.71,clear sky,-28.65,153.6167,Backpackers Inn
665,Richards Bay,ZA,71.91,scattered clouds,-28.783,32.0377,BON Hotel Waterfront Richards Bay
667,Paijan,PE,70.83,overcast clouds,-7.7333,-79.3022,ALQUILO CUARTOS
668,Savelugu,GH,80.78,clear sky,9.6244,-0.8253,Yoo Naa's Palace
670,Mendota,US,61.47,overcast clouds,36.7536,-120.3816,MAA
671,Guatire,VE,76.21,broken clouds,10.4762,-66.5427,Parque Residencial Canaima I
672,Imbituba,BR,76.89,overcast clouds,-28.24,-48.6703,Praia Hotel Imbituba
674,Gisborne,NZ,63.95,overcast clouds,-38.6533,178.0042,ASURE Alfresco Motor Lodge
675,Labuhan,ID,79.18,overcast clouds,-6.8844,112.2051,DoubleFAG
676,Fortuna,US,61.72,clear sky,40.5982,-124.1573,Super 8 by Wyndham Fortuna
677,Banes,CU,74.01,clear sky,20.9625,-75.7186,Hostal Iván y yailet
678,Bani,DO,73.85,clear sky,18.2833,-70.3333,Hospedaje Henriquez
681,Sao Felix Do Xingu,BR,69.57,overcast clouds,-6.6447,-51.995,Rio Xingu Camping
685,Vanimo,PG,85.44,overcast clouds,-2.6741,141.3028,Vahmoneh Lodge Vanimo
686,Eureka,US,61.99,clear sky,40.8021,-124.1637,Eureka Inn Trademark By Wyndham
687,Paraiso,CR,68.86,scattered clouds,9.8383,-83.8656,Hotel Rinconcito Verde
691,Alta Floresta,BR,70.63,overcast clouds,-9.8756,-56.0861,Floresta Amazonica Hotel
692,Port-Gentil,GA,79.39,light rain,-0.7193,8.7815,Fengshui Residence
693,Yarada,IN,70.12,mist,17.65,83.2667,Yarada Jungle Beach Resorts
694,La Serena,CL,63.88,scattered clouds,-29.9078,-71.2542,Terra Diaguita Hostal Boutique & Spa
